$GPRMC,192812.00,A,5035.56535,N,00720.91511,E,0.191,,100321,,,A*72
$GPVTG,,T,,M,0.191,N,0.354,K,A*28
$GPGGA,192812.00,5035.56535,N,00720.91511,E,1,10,0.85,330.8,M,46.9,M,,*59
$GPGSA,A,3,16,20,23,10,18,26,08,07,15,21,,,1.72,0.85,1.50*0F
$GPGSV,4,1,13,07,13,298,22,08,39,295,28,10,55,132,43,13,04,013,*7C
$GPGSV,4,2,13,15,12,043,27,16,47,191,41,18,24,064,31,20,49,071,21*75
$GPGSV,4,3,13,21,17,249,24,23,49,073,18,26,21,177,35,27,82,306,*7B
$GPGSV,4,4,13,30,07,330,15*4B
$GPGLL,5035.56535,N,00720.91511,E,192812.00,A,A*63
$GPRMC,192822.00,A,5035.56591,N,00720.91370,E,0.085,,100321,,,A*7A
$GPVTG,,T,,M,0.085,N,0.158,K,A*22
$GPGGA,192822.00,5035.56591,N,00720.91370,E,1,10,0.83,330.9,M,46.9,M,,*52
$GPGSA,A,3,16,20,23,10,18,26,08,07,15,21,,,1.65,0.83,1.43*0D
$GPGSV,4,1,13,07,13,298,20,08,39,295,28,10,55,132,42,13,04,013,*7F
$GPGSV,4,2,13,15,12,043,25,16,47,191,40,18,24,064,31,20,49,071,21*76
$GPGSV,4,3,13,21,17,249,25,23,49,073,17,26,21,177,36,27,82,306,*76
$GPGSV,4,4,13,30,07,330,10*4E
$GPGLL,5035.56591,N,00720.91370,E,192822.00,A,A*6F
$GPRMC,192832.00,A,5035.56659,N,00720.91200,E,0.281,,100321,,,A*7C
$GPVTG,,T,,M,0.281,N,0.520,K,A*2F
$GPGGA,192832.00,5035.56659,N,00720.91200,E,1,10,0.84,326.6,M,46.9,M,,*5D
$GPGSA,A,3,16,20,23,10,18,26,08,07,15,21,,,1.72,0.84,1.50*0E
$GPGSV,4,1,13,07,13,298,23,08,39,295,27,10,55,132,42,13,04,013,*73
$GPGSV,4,2,13,15,12,043,25,16,47,191,40,18,24,064,30,20,49,071,19*7C
$GPGSV,4,3,13,21,17,249,26,23,49,073,29,26,21,177,36,27,82,306,*78
$GPGSV,4,4,13,30,07,330,08*47
$GPGLL,5035.56659,N,00720.91200,E,192832.00,A,A*6F
$GPRMC,192842.00,A,5035.56698,N,00720.91191,E,0.123,,100321,,,A*76
$GPVTG,,T,,M,0.123,N,0.228,K,A*2B
$GPGGA,192842.00,5035.56698,N,00720.91191,E,1,10,0.83,327.2,M,46.9,M,,*5E
$GPGSA,A,3,16,20,23,10,18,26,08,07,15,21,,,1.65,0.83,1.43*0D
$GPGSV,4,1,13,07,13,298,24,08,39,295,23,10,55,132,43,13,04,013,*71
$GPGSV,4,2,13,15,12,043,24,16,47,191,41,18,24,064,28,20,49,071,26*79
$GPGSV,4,3,13,21,17,249,26,23,49,073,26,26,21,177,34,27,82,306,*75
$GPGSV,4,4,13,30,07,330,*4F
$GPGLL,5035.56698,N,00720.91191,E,192842.00,A,A*6E
$GPRMC,192852.00,A,5035.56752,N,00720.91095,E,0.145,,100321,,,A*75
$GPVTG,,T,,M,0.145,N,0.269,K,A*2E
$GPGGA,192852.00,5035.56752,N,00720.91095,E,1,11,0.92,327.5,M,46.9,M,,*5B
$GPGSA,A,3,27,16,20,23,10,18,26,08,07,15,21,,1.55,0.92,1.25*0B
$GPGSV,4,1,13,07,13,298,24,08,39,295,25,10,55,132,43,13,04,013,*77
$GPGSV,4,2,13,15,12,043,25,16,47,191,42,18,24,064,25,20,49,071,28*78
$GPGSV,4,3,13,21,17,249,28,23,49,073,27,26,21,177,34,27,82,306,26*7E
$GPGSV,4,4,13,30,07,330,*4F
$GPGLL,5035.56752,N,00720.91095,E,192852.00,A,A*6D
$GPRMC,192902.00,A,5035.56795,N,00720.91051,E,0.240,,100321,,,A*74
$GPVTG,,T,,M,0.240,N,0.444,K,A*21
$GPGGA,192902.00,5035.56795,N,00720.91051,E,1,10,0.92,326.4,M,46.9,M,,*5D
$GPGSA,A,3,27,16,20,23,10,18,26,08,15,21,,,1.55,0.92,1.25*0C
$GPGSV,4,1,13,07,13,298,,08,39,295,27,10,55,132,43,13,04,013,*73
$GPGSV,4,2,13,15,12,043,13,16,47,191,42,18,24,064,21,20,49,071,27*76
$GPGSV,4,3,13,21,17,249,27,23,49,073,26,26,21,177,34,27,82,306,27*71
$GPGSV,4,4,13,30,07,330,*4F
$GPGLL,5035.56795,N,00720.91051,E,192902.00,A,A*6A
$GPRMC,192912.00,A,5035.56830,N,00720.91050,E,0.130,,100321,,,A*70
$GPVTG,,T,,M,0.130,N,0.241,K,A*26
$GPGGA,192912.00,5035.56830,N,00720.91050,E,1,11,0.92,325.5,M,46.9,M,,*5E
$GPGSA,A,3,27,16,20,23,10,18,26,08,07,15,21,,1.55,0.92,1.25*0B
$GPGSV,4,1,13,07,13,298,19,08,39,295,28,10,55,132,43,13,04,013,*74
$GPGSV,4,2,13,15,12,043,22,16,47,191,40,18,24,064,21,20,49,071,23*72
$GPGSV,4,3,13,21,17,249,27,23,49,073,23,26,21,177,35,27,82,306,27*75
$GPGSV,4,4,13,30,07,330,*4F
$GPGLL,5035.56830,N,00720.91050,E,192912.00,A,A*6A
$GPRMC,192922.00,A,5035.56779,N,00720.91151,E,0.112,,100321,,,A*71
$GPVTG,,T,,M,0.112,N,0.207,K,A*24
$GPGGA,192922.00,5035.56779,N,00720.91151,E,1,11,0.92,326.3,M,46.9,M,,*5A
$GPGSA,A,3,27,16,20,23,10,18,26,08,07,15,21,,1.55,0.92,1.25*0B
$GPGSV,4,1,13,07,13,298,09,08,39,295,28,10,55,132,42,13,04,013,*74
$GPGSV,4,2,13,15,12,043,24,16,47,191,40,18,24,064,24,20,49,071,14*75
$GPGSV,4,3,13,21,17,249,31,23,49,073,28,26,21,177,35,27,82,306,29*77
$GPGSV,4,4,13,30,07,330,*4F
$GPGLL,5035.56779,N,00720.91151,E,192922.00,A,A*6B